[
  {
    "nameAirport": "Grand Central",
    "codeIataAirport": "GCJ",
    "codeIcaoAirport": "FAGC",
    "latitudeAirport": "-26.233334",
    "longitudeAirport": "28.15",
    "timezone": "Africa/Johannesburg",
    "GMT": "2",
    "phone": "",
    "nameCountry": "South Africa",
    "codeIso2Country": "ZA",
    "codeIataCity": "JNB",
    "distance": "10.762750223783167"
  },
  {
    "nameAirport": "Oliver Reginald Tambo International (Jan Smuts International)",
    "codeIataAirport": "JNB",
    "codeIcaoAirport": "FAJS",
    "latitudeAirport": "-26.132664",
    "longitudeAirport": "28.231314",
    "timezone": "Africa/Johannesburg",
    "GMT": "2",
    "phone": "+27 (0) 11 92",
    "nameCountry": "South Africa",
    "codeIso2Country": "ZA",
    "codeIataCity": "JNB",
    "distance": "20.0364068242892"
  },
  {
    "nameAirport": "Rand/Germiston",
    "codeIataAirport": "QRA",
    "codeIcaoAirport": "FAGM",
    "latitudeAirport": "-26.140278",
    "longitudeAirport": "28.242779",
    "timezone": "Africa/Johannesburg",
    "GMT": "2",
    "phone": "",
    "nameCountry": "South Africa",
    "codeIso2Country": "ZA",
    "codeIataCity": "JNB",
    "distance": "20.7874241780307"
  },
  {
    "nameAirport": "Pilanesberg",
    "codeIataAirport": "NTY",
    "codeIcaoAirport": "FAPN",
    "latitudeAirport": "-26.033333",
    "longitudeAirport": "27.916668",
    "timezone": "Africa/Johannesburg",
    "GMT": "2",
    "phone": "",
    "nameCountry": "South Africa",
    "codeIso2Country": "ZA",
    "codeIataCity": "NTY",
    "distance": "23.069202422731195"
  },
  {
    "nameAirport": "Lanseria",
    "codeIataAirport": "HLA",
    "codeIcaoAirport": "FALA",
    "latitudeAirport": "-25.937843",
    "longitudeAirport": "27.926432",
    "timezone": "Africa/Johannesburg",
    "GMT": "2",
    "phone": "",
    "nameCountry": "South Africa",
    "codeIso2Country": "ZA",
    "codeIataCity": "JNB",
    "distance": "32.01882555008824"
  },
  {
    "nameAirport": "Wonderboom Airport.",
    "codeIataAirport": "PRY",
    "codeIcaoAirport": "FAWB",
    "latitudeAirport": "-25.654444",
    "longitudeAirport": "28.220833",
    "timezone": "Africa/Johannesburg",
    "GMT": "2",
    "phone": "",
    "nameCountry": "South Africa",
    "codeIso2Country": "ZA",
    "codeIataCity": "PRY",
    "distance": "63.62472092786801"
  },
  {
    "nameAirport": "Secunda",
    "codeIataAirport": "ZEC",
    "codeIcaoAirport": "FASC",
    "latitudeAirport": "-27",
    "longitudeAirport": "28",
    "timezone": "Africa/Johannesburg",
    "GMT": "2",
    "phone": "",
    "nameCountry": "South Africa",
    "codeIso2Country": "ZA",
    "codeIataCity": "ZEC",
    "distance": "88.74978704931377"
  }
]
